id, latitude, longitude, name, picture
209e303fa906406fb1a99e166685a9fd.16, 23.520762, 120.230518,   蔦松橋,   https://lh3.googleusercontent.com/yoV_P2ePeBtDrX9Ca67ieTaPtqj48hJtj5yeCnwVotYqD3wQ429l1sKTvbJ3dFvf4kzfdNA-DPyJ-CZcn1lrW0cpGKVV
857aa3b2e5874330801526ce47f8c49a.16, 23.523612, 120.231124,   橋墩塗鴉,   https://lh3.googleusercontent.com/ccQacLg8YwQywjV7VqZbFZr-VDjFlcNuep3UPnYKcbPbHo6R2jMxIXHm_8XVggRe4HDQ7Kut4raYD0kR8qSRV6aAixA
3d6b9823aa3e4b8b8f68700b517200e8.16, 23.5103, 120.224716,   松山大橋標誌(北側),   https://lh3.googleusercontent.com/ilP9Aeg6Gl7-HcXR_16gZOP9TIjfp3fvkYWAAXM_TxiN0YS-odIz9oodZnQKyfhaqG5prTWCbGDuDffPiJzWNCqW7XE
10a9626f70014e2c98d4ce6968e83be7.16, 23.510628, 120.225156,   南營大將軍廟,   https://lh3.ggpht.com/w_wi4DT7zaNy5MMAsdSSWy1fVvrLCi_T51E_aOAtW1KvSI5GXJv9eIALy2N9NSpC3dP6NhFizE1EgwUGlk8
3ece8f06fb774a5ca9c11841a5668ceb.16, 23.511626, 120.227917,   彩繪檳榔攤,   https://lh3.googleusercontent.com/D-eTZyi9GI0xaZkiC2UKhAqS69pBydV03tXVwv9ewBXKXIeccoQS4mivQapcQhVaIjhqv6rBwakw40w48UHFN2VtYqVb
6eefb860945345c4aab67d42c1d55e0b.16, 23.513674, 120.229078,   蕃薯兄弟,   https://lh3.googleusercontent.com/rhXwHiAt5Fc7EG6TWzP0-eXsyJe2yIPglpaU60wJlgYQa_Ks-Rt_xUYXNm_6HZzQwTT1LVPd39CA1xR1OdY9TAUKqag
2afde437e3b04b948d565f1d320aac3c.16, 23.513745, 120.228894,   蕃薯嬸,   https://lh5.ggpht.com/FWIlThYgAN4guS_DTGelYSv10jw3LG-lZvcAv5s0LUawBudLuGXxcxQXoCOnyN2S1Zb_ncfJLv5ERZUI_06sFg
62282a6389414e1b8f7c5ef4deb770f7.16, 23.48509, 120.22899,   古林社區(更寮方向入口),   https://lh3.googleusercontent.com/Fx9JAihcKMcutFoy3yEvCmd-cOoDwBfT4YiuCVrfj4lYlf1ZjJxqCjpQ62Vafn86E2fyjeozpockTGMUoQ_SY3hII04
dcaa64ea955c4a88bc65e4c7783cca0e.16, 23.488808, 120.227554,   蔡業公廟,   https://lh3.googleusercontent.com/lkFa1ob7jULY9sFEUt3OC73mAVYRyYtMQVCasyRlXnKnq6kHejfq9dwAb6EMv6GW_VhGRp-tv5ma8lCpssrlTPKW2kM
a3ecedf15411458db891a8d882a1fdc7.16, 23.472583, 120.174648,   嘉義縣三江農地重劃區碑,   https://lh3.googleusercontent.com/UJtxDyp5M09JTu13xp9xOCqibt39U4kxgUYLJToGWkINgZS6LdIhcYDVTBryVjrdv9UI283-GNSrQp-l8QD2vnPMYA
16640a16c7eb49f3a5a2ab4b3fd44bd0.16, 23.477315, 120.174454,   慶福宮金府千歲,   https://lh3.googleusercontent.com/Atnyj4CDLE8qZUTDOdeebs2XPhZbGfkTfVOtArF4EQaD-qTCtz-sVeeNY1iVzkswAkteh4pogZXKHI_2LUbbPCFbGw
f7948c09263a4834aee4408a983c9594.16, 23.470239, 120.208403,   飛躍蔦松,   https://lh3.googleusercontent.com/ILdKm2N3wCsZXXFmMouvLWBAIkSI9KxTkSALys9ghH5fvSaOpZqBgop6JXMIXfiQl_YDYF2ATB9HEHtoQFFHD_fN5g
2993953926a542719fb551ca3b69d729.16, 23.469144, 120.219677,   鳥菘 松湖宮牌樓,   https://lh3.googleusercontent.com/iSrhN7xG8Q-q8Pl7k4FtC7cjPv1yl_B136Z0hmiWQjWM_fe-kOBvWEitaf-1sQw5MtRau8Dpc_sSDPKs0glKu1pIm7s
714d545338a14ce3b008c63367893fb7.16, 23.469608, 120.21929,   蔦松社區,   https://lh3.googleusercontent.com/WN9wle_k9aPMqkeS-8oIIOedyGbmXlzJWMnhfowApPuBkGTGnkWM169PAmcHrwEdBvMlTASK1nJEUoT9D0VebegjTIKn
da653b76e71c4fe59672535ed7d02333.16, 23.470273, 120.225511,   船仔頭,   https://lh3.googleusercontent.com/NYzv1mT-P973tUUcMl2FQOWD3KIaXq-CYsZvrtZEPMlBRTR0H0D51YpLH_3uDvO0LwQqcJeqq4kLR3ggKIyEckAuPQs
1b675ed15aa84096bdd8045b49e8ce9b.16, 23.470501, 120.217803,   南營將軍廟,   https://lh3.googleusercontent.com/wFt8EYknOqY_w2EHjt08XmaD4Y8oky2jbHlI-_cctTkBgVyJp3bDw0a7z9URG7bQd-oiBBO1Y0EZw85Yg3JxGUGtcwY
c7e3401b7054489d84a7a8eb584258ab.16, 23.469983, 120.256438,   北歐工坊小矮人雕像,   https://lh3.googleusercontent.com/UNeNMV3M9KkrKiqLvt1m-Bzwyv5tK5KTO5R7uvq3B36nWJoTAQSqBFGaYsrHG1HIQrWTxotkVqSqej4DaZrwEyHLoF0
da6fb4c3ccbd464eb9aa6bd4876d75a0.16, 23.476202, 120.270765,   下寮石碼宮牌樓,   https://lh3.googleusercontent.com/Qa3oeGnAeUPvE2in_LO_GkWANGoJ5wUXNVEqH6t_eMzNisuUoyKMb2L7QkudlIPDrIkVXk4lsBDRTrWADT6yhjO49oQ
297fd14241b426ab94a7a72294963e8e, 23.457564, 120.151752,   ,  NULL
ffd6ddabc4174f199ee65d34ae02e9d2.16, 23.456519, 120.190144,   代天府牌樓,   https://lh3.googleusercontent.com/aWizGd7M8tJcPiUGrm9lnw-_Xsq9CYnPXkOqM8rCeHH2F4ZvsxjeoVPFHdejgc9PV9RaIkJ5NyJgiDDatdOQ8Is5j_A
2c68b18e51a445ecab94c454b214dc2f.16, 23.457583, 120.216233,   榕樹下的土地公廟,   https://lh3.googleusercontent.com/TajaSFubAOkiA__uE1FuM5cx4YeHGrhZvUAq1RCqG6LnuqMPJ2a4PF8nl7sauyRtObemTirit-p7OsbJfypP
b009743673444b38904ddd042cc26903.16, 23.459716, 120.216357,   頂厝東營,   https://lh3.googleusercontent.com/M0ecbMJVhS8r_oyHpl-BlxP7B8DNghZydYKSX-XFw4i7jhZbUCB-r2j-wLA38tCbpMuaCgfLF3e9ERw3znk9KmvtDjw
fccfa7de19d14b968a23db90377e689a.16, 23.460282, 120.21542,   頂厝北營,   https://lh3.googleusercontent.com/5WZzOHEovR_kXo5tqREfUuUhEabFmb0y06tQffNg6bnP8-QI73IVXf-jN6rIa27YkGEA5AuavUYdCHj9Yr83Jj48Mbs-
d59fe07cfd0f4f73af53f63bfdade3be.16, 23.463192, 120.228185,   大肥鵝,   https://lh3.googleusercontent.com/OhAqHyVhsgAzNvkmx2bKeRYE19ApH1MbNq40L7ynT4TNPtnNULHuvSWre1X2ZpNkrywY-s4KVNkQFJMN2XPGawMyyVXr
06c83b1d55fd4235b5f7d25437164d0a.16, 23.442047, 120.197714,   中洲福安宮牌樓,   https://lh3.googleusercontent.com/6V-q-zIOd2J2smrBtgJVAm1ueHVwhTnONMngq8_t_0ezfW1FCF7pbUZMOUPNW22j8aPXVaBtxAHZBm4vusuo7_BWPds
cb52ff478743dc57b075f983c81e53e2, 23.442906, 120.245088,   ,  NULL
4648a05243cc4616bbb5564113f59751.16, 23.446496, 120.230392,   寶龍宮金爐,   https://lh3.googleusercontent.com/nPnw5QqcxueoZvOM4YvtPc5MsOg6Ib3dhtrLuAzAM5DljVZIf9rx7pWK6qFodPA55OTATHDhGreP-JIKLPZWpmwm4g
759cf3f170694e17a017e8dccae81a2a.16, 23.431933, 120.190866,   栗子崙靈慈宮牌樓,   https://lh5.ggpht.com/dI8Hn-H3JjfMcdw3bL8SQQAnAsxH2qTxML-i8tQjB3jVfCgPWCY8sbcRAR3xV6KeJq0WM5ITKZuDy1pYKPmK
3664c35eb291499e80e0938f517a1881.16, 23.433239, 120.18538,   同林鳥,   https://lh3.googleusercontent.com/sFqNcgxq946wOr_N6EnVIk1xsy0Kda18rCyZ5coOSbl-HU78-5SNe9K_p_23Sy15PoAtTPpCFdPb8h1MD1ZYyOOW8Q
ef1d9224ecb44d48b989c05c93b6fd80.16, 23.435976, 120.203354,   福安宮東營,   https://lh3.googleusercontent.com/6pQDaIah6loKq-t8xn7LnqAsA0oiydjTVGqizXSu3Gz0OafN8Pcl0z6TsjU5Nec76sMn6x5zsanvA8NN96hCc4ZbShM
9f82dd8ebd0142a6846750caecdc5e9a.16, 23.436648, 120.209431,   半月西營,   https://lh3.googleusercontent.com/Egt_lmOjumMFPrcQ0Q6yrl1H0KCAqGjg5vfr6j6N4Ikrstz8qDpnFwM8_2elwILMEPjaImMYvPp3EEaf1-sbIe_HIbA
8361888aa0654c0db6770f83b3b8c188.16, 23.438512, 120.194911,   五府千歲 中壇元帥,   https://lh3.googleusercontent.com/oZf82rIKzf5rH3xX0iWBoC6TlgY4mA3ghwLGn_dJT7YaDKKWpr2eAisDSvhzKPNLVfg2PmVQt_D9GoGSRtFr
1955b18380ac4d0587263de056e8683a.16, 23.437917, 120.246354,   朴子工業區,   https://lh3.googleusercontent.com/rLuuXCsb_JxF4xR9gSHxkPUPNCAllklWCuNgU0Yn-LuGD7CLkqipZ1UPP597EqONb5n7HaLF-5a3Nm-GnBxNb1Nyjg
d6a83629401444d7a2b96c6fa779b021.16, 23.418294, 120.177154,   陳春伯小廟,   https://lh3.googleusercontent.com/z4zzjyXehuZofcXL1_JMJD5F6N1lb0yf68geIJsdXY_Ifqch3ilu4N3SgPUUk_lfL7VhWSc20ilUWE1NYrJAzw
b3212676d6e146df9b260034698b0170.16, 23.418799, 120.173289,   東石掌潭保安宮,   https://lh3.googleusercontent.com/wp9m3rUwrdTR3AKp5mulpvjiFstO6EY23c2T_V14ZmxOlG8-kmzcEbnwx09UXfM65k6uN0oqsv_TpzyWXYk
e0526e60f6244d1bada8e067a9ca60df.16, 23.421823, 120.15739,   可愛貓頭鷹,   https://lh3.googleusercontent.com/G0vM9TCGyynbCpHSqq-j5DtyFxqIYS2HIjY_fwiK-5Wc5fhcNvE7sokO7Xh1AU69HSuTZvwp98Bsl5hZ7C2A
8e4b513f3043418d8ca31141bfaffc68.16, 23.425291, 120.211602,   涼亭,   https://lh3.googleusercontent.com/ZIUCHcSJFOzLRfSHEE7UxcT0ggRzHh-JP5Jg7eJynqcriYcir7XGmFC5QsDp855sGJDHJZjpBlGI_Jar9pI_psaSHmw
70889985a16442a2823bdfbb1590ff0f.16, 23.41543, 120.218323,   布袋樹林山西宮,   https://lh3.googleusercontent.com/NDt0DCOp8xnLZvo9Ka1zgc1xmhggizFZlwxLARnAcPjEiEm9xn4VuUgm2ungWHqBmLJaoByjGnSW0BsYuLj2sZbzBA
9fb912f5660b43b4913284944a68b2af.16, 23.41629, 120.233585,   布袋下庄子南營,   https://lh3.googleusercontent.com/4RbSYKobMt-B2CWIbFQXqPxu0Kj6ckF0sNk_Su8HusD06hZBSLEMs0mMrKiLPtyVWrQ5Ati8JtaIXO5r_lty
052fe56fc92d4d6f9934fe1210ef0b16.16, 23.417164, 120.233652,   布袋下庄清水宮,   https://lh3.googleusercontent.com/xM7KB_OrH9vnHjWA6hSjg6xrbVrAECg_tnzgpnFl1KKsGSk5bJ7uOMVWY6Q5dQT2jk3XOMaHxsiHHG0iuAZb00KR8A
f767a80fc24e4ff28a49a09566620831.16, 23.387668, 120.170203,   蓮花出淤泥而不染,   https://lh3.googleusercontent.com/62ZeRWoiXy4Gp3yX9Eu4QPZ2QgA2EBXgoEV4BMA2P_f3t3redOwe-46edlRPa7XiCHclQusXEpVYHYlZ-_cLKjHQ8mFI
bbc8db770b324d47bbbfaa8150d6ffc7.16, 23.394911, 120.274983,   廣福宮東營,   https://lh3.googleusercontent.com/cR7tZ8f_xt0SD6XbhtcnCGBzjNYyezqDXhen5pHWnQ-1Dhy97lNWixRt1Y4EEuaVk7WdmbeOl49gZFO9WvTWO9KGUF5f
c6587b31f34c44e1a96824dbf571cb1c.16, 23.396945, 120.26959,   廣福宮西營,   https://lh3.googleusercontent.com/mYw1IEt2SGP2JyTTaLMO2PByt65J92zZCL58zfsXAfwm-C4OM86oHLlP0DpgiTgIklKvJdghvWlKunW5FiQEzSMLezU
ce1246d96d3b41759bac30f816dbbd01.16, 23.379286, 120.139569,   港看板,   http://lh3.googleusercontent.com/QVVrzEkP4i2osKT66nEPM-cgVab49RVsSfs8OEledGq85f7bxkH-or3qHDdN7a7ZHd8GkiOsTM0U55ECWpxRPEMRGw
10c1f167983746748b27c59ddbc1dd95.16, 23.374233, 120.175255,   虱目魚街造型指標,   https://lh3.googleusercontent.com/gkLb5-pJFiA9E305pA9s6CUfZWIAHjsM1KX9NhRABHj0G5ugRuq9evgf-ECLH4GUPWmHhg7TLlHnVhuGLemvZOKGO_MB
e9e5ac1be14a47c28c41e8288139b4df.16, 23.375503, 120.162764,   朱府千歲將軍爺,   https://lh3.googleusercontent.com/rkrksRihU4SxoIYldxSy_tbeBKOX_WaKxC3QM23_0lQbb_AA374Dg6rB4nfya7gGHDHkPIbpDb4eXN4oeub5gELIQ-U
b074b5a1b207458de5762d2d0f0326c6, 23.377445, 120.168119,   ,  NULL
5652e75fd2cf435cb363ceec9b3ebd58.16, 23.382692, 120.170908,   古代水車,   https://lh3.googleusercontent.com/12PX7wcpey7qhuo8nAbVIBThPCgicqdbVCCnAsLMmjlgKWuNSTzyfZHTc6aOlt6jvQWKXRdUOyp1fVwcxy6LA6faxg
3b10e560c1b1489f907e32c143c78855.16, 23.383, 120.17191,   布袋龍江里-南營小廟,   https://lh3.googleusercontent.com/6rEsf33qnfiUEjdcYX_PaS80s38VMBJUXXMD8jZHwxJeg0YwdjnEv_uVa3VL6Cs2xPDRzLHleq4cy7Cac1-WEg
158244a5a32f9946897b6b3ffdd1702d, 23.373357, 120.186239,   ,  NULL
49d53ada163e4c27b05e76e9d15899bc.16, 23.380716, 120.190975,   東港社區造型牆,   https://lh3.googleusercontent.com/uItuVZtJeEobLpjpCXoenk5riOzydrm0kNWVWVb2ZSFwKTEI_bXhR0tnWhD5qUmEaB8odpIGnUo_bxzXUqCA
cf0661a4febf4324aca65cb657b554f0.16, 23.376147, 120.245415,   東後寮外營,   https://lh3.googleusercontent.com/wi2qUKvSW7QR8ZK2oFp4hWrk0yMSQkfhELdCtRIyoKbexp03y3EzwcjhBklh1sRHOobiQK-DODwZAwTuG1aj66pfVQ
d67c733d64fb429cab8a43fdf851dfc6.16, 23.361584, 120.178496,   新塭虱目魚街造型指標,   https://lh3.googleusercontent.com/foDUrk6YIXRembcncxq8oydr0EsMKQL4lRj5DKNaFQfEcuuH61G_4SfDwLgNxKgNlaO-H6lUbah4rUZb_WiW7t24GQ
d113f2fdf0f04e2886456540eb7fea11.16, 23.361785, 120.178791,   鹽晶晶造型路標,   https://lh3.googleusercontent.com/bMcLXid3FP03dEHFVJnKyTo8BEc8wSmNLYJxnijCrFgE70ma-kYYSNe8_V6ZAyreVxTlkEHfBqdd7HSUh_Q6ydv4qw
28847cfa542243868b1d6bec111e20e0.16, 23.360376, 120.183641,   溪尾橋,   https://lh3.googleusercontent.com/AFcA_5hAEIYPIgnR9IsW1eYWrSEMnO_eLWe1niD8octNliNLpdn2UdNL_cXxcFOlsmz4zY5NwUKPQg9fYn8i8luSojM
d6ac2c45a9ad42b19d6caa8d687901fc.16, 23.365934, 120.183467,   永安橋,   https://lh3.googleusercontent.com/W3pkOcngBdQktoufdGnuuzwDDKWoDUZ26bDcPezwMiJp532fx_XNcj_rnfuxTadoa1McamXB7fNhahHXVRv_yBeUKQ0
653e42a9209241ee9ca714a3713e6301.16, 23.368775, 120.198826,   仁義鎮安橋,   https://lh3.googleusercontent.com/D9uFuwi1JqbSYPcPYnb5MytgnFk-q6FDnBO1Z2yl7NdRdJxAu4Vzyi6eZOSYongPQQSr_Dni5nquP6yf4Aj9mO-MJFM
b49d1505c0f34cb2bf868ece659eaa79.16, 23.362551, 120.25114,   福德宮牌樓,   https://lh3.googleusercontent.com/m_9trHzfE7BTDvbgfF6xZm7P3yC5hwkkl2P5Woto3a3MLtWc_bIM9lGqvr2z2VtqLgEQGP8gPay3e7Qb72FO0XPjJY8
2c9d1d2e380448ea8fb466f574453390.16, 23.345758, 120.225871,   碑子頭東營,   https://lh3.googleusercontent.com/YvKUNOLXdAKDoRe5sb_OIoSTFFqt-fZmA0bWtz9hHaQWouA9V4E6LyIXwDRcmagJufxGUgjH_JBlAHIsjVJbroty0w
cdf64a0550474296980118ff399ee756.16, 23.346373, 120.224703,   碑前社區導覽地圖,   https://lh3.googleusercontent.com/c2RE6_Tx0f9pNWa7bspbAVA_L0KdtLX7d5cI1EXPETKRNfx8NG1EKzz6oA5tyYA5yP2mH_9X-IE00JqpQtU8tDVyMD8
1ce73fdc100441c696cb60289eba12fc.16, 23.347488, 120.251495,   義竹自行車步道,   https://lh3.googleusercontent.com/op4jAmuizfFoZAbb1wK0-2_-YsTZ8V2eBGHwZHF7ElKk4iOUc-QCapsv0Ra37w16bHHJQrechMr8V5_CN57zvu2KTQ
d5de156fab22453ea532755395291e31.16, 23.353838, 120.274595,   威鎮境域,   https://lh3.googleusercontent.com/bJAK3zRzhGNdpuiF3T_GLFahduZDk8ZyvkrOEzKdWMpYPu2uZKVCNtvb1GEa4MydH1OyL2BkoCeoyXI-laQ
e31fef709c6e49a79841713bed601493.16, 23.35495, 120.260146,   沼氣の能源堡壘,   https://lh3.googleusercontent.com/jSI_gA5ZG_vtWh2RAs6TE4ISmgue9kfQZ1Cdq-lE9_awb-_xDN0FX4cqpmhlsW0IU75wJedZZM4ywZ6dcTHc9Duj0Vg
3a92e4e9b2a3481eae00608f55fb4d4f.16, 23.335078, 120.140969,   魍港太聖宮牌樓,   https://lh3.googleusercontent.com/oxTV68BfRev_Rchoz_id0WITyWSDiiPBwVmraFDwEvZ5JTd7HOzK6jOcK-VqIG1bNmOl7z9rl9U-QwD13NhB-9tkKxw-
a4798b95e1994f3681123c579ddaa97d.16, 23.338086, 120.137909,   海洋世界彩繪,   https://lh3.googleusercontent.com/aJGFu9cyYBJwTD_dM5gERbLrJUdYIkE7I8IRPGfAlSBd5sSGvnTtu3pNTRut5rPijmrfQ87yJutX64bpbZIOzQG1hIQ
751651b360594d88864df5179671bdad.16, 23.339145, 120.140645,   海抹香鯨大戰大王烏賊,   https://lh3.googleusercontent.com/TviBLrz5jV9nF-gymLJOmRQD0bhPFtZHabA_4-RQx-ysK02gfsiaoUZSr_AQVaL9QPMd8fe8XF44MirwRmMfzzXeAw
664fe0fe89984929b9a9ef2fc850e73a.16, 23.33933, 120.138524,   金陵府,   https://lh3.googleusercontent.com/GdDGaB3nPJgWOvEQwd5u4eam49UoVQvGEHfl-Z_y2PlxHiw-aRETSNswzUiIPcN18t2akIc0KDWR03c-DmVAcHed7Ag
ff13b4c9c4f94b09ad95751eb99533e2.16, 23.336494, 120.170957,   鯉躍龍門,   https://lh3.googleusercontent.com/KtFksbpUpzNzOtmsxblAcjhvMO8LNHRort49_uJTsOvRfXRb0YQqffEYkfflr0x27Z3qM4YwYVdrrgBHJDdO8f37DV4
0fe96660724e4cbaa6e3e45f6a07e964.16, 23.340345, 120.193421,   義竹-田園城市幸福南興壁畫,   https://lh3.ggpht.com/BunlGn99zAAI1xwkbESOpRkhUl_erXq-QOLK8JSAmC7GT-GmAh2CjYjylL9e0RfWeVky55uFLhvwF_xh0wi5KQ
17ec1ecc07504e938b4550ae9aab30bb.16, 23.340452, 120.193458,   新店村壁畫,   https://lh3.googleusercontent.com/Cyr43MXKdCajSYKxL--Zi5siC1WmX7iBdyS2stZWZiurK1RXKvjCXGx0kpz6EMiG7O2R0rnHPZGJNdJxoMKo_27Mvh4bwxeEzUbWnFE83Q
202e722bfd5d49f1a264dceb90fc1572.16, 23.336169, 120.233078,   鴿將軍路標,   https://lh3.googleusercontent.com/4sh_enq85mwbc8tcGIQjKxe_lgEKS9l5xOmXnwhUHhGAJ9WUrWOXv5DVGAeSzfvRIHaQGKHZ4pQ0dyfBPPf5G35CZw
47e8510c112c410f85110d19d256df5a.16, 23.337088, 120.242491,   天主堂,   https://lh3.googleusercontent.com/KKc389Ofw61UV7MezFV0ELlcdN4qQr3oYqkGXAAYAozfj74cGFuxYAw8R7zE49ORV2oyHa40iEYQ1WPWDPBMDTbjFWpw
b824adc2adfb44acb339224aa3c98e38.16, 23.342811, 120.234081,   中天府牌樓,   https://lh3.googleusercontent.com/ALlWp_4XGpX0oeXho3Vsb6Jqtmb8twFxy86YOXjAKsvhw0IX0aLyhrNaEMe3_1g_eavv07os_2fWGkWvuJDkDagiFzI
e88d0ffc67cd43a1b84b6baabb241f21.16, 23.339291, 120.253992,   營冬,   https://lh3.googleusercontent.com/Pu0Xxqmvah_-UdpyR-hfwc0F1uPwxfO8p1GBvXk8dGtcJSjDokk9F2Iiee-qpIiLDahkaiY3AdQzRhQHuvTYFH5wZFWt
299af8d7b6454813b4a3d74f407f7f3b.16, 23.339979, 120.254425,   土地公,   https://lh3.googleusercontent.com/iFx7hTAnLyefaRL8sGprvsUhz16fQpsUSWM3IwkKrv6KH9Jjel7CDh29RDm5NM3ZUdCMyNGtORO8AOvco5Ss7HYwI4A
1fbd55f4da704588bd66e3dacb70fa8a.16, 23.32783, 120.155195,   布袋新塭西營,   https://lh6.ggpht.com/3-rMa_AXdkC5jnfHBT4WNKbWHF6Uqf7h4vyCAJDeJdoX8da4IN0osTV5c3cqm1uNx07qTEp_Ws0nxIPQ7ikE
cd37a2d60e2f4b8cb2fd15c64f642f47.16, 23.323391, 120.263534,   ,  NULL
5e14142afb934bd492e23337eee46a32.16, 23.328877, 120.260472,   岸內國小快樂學習風車,   https://lh4.ggpht.com/VEVhag-4paEd9d056gHWyMS3RYTI1cruI85eyKL-m1EAXYCq4RhyvUBaouN2Dabo37R62ah_oExAxdXpmIdP
eda91ae2d7404b8ba05afd342bbf5cf7.16, 23.306876, 120.185309,   官順社區,   https://lh3.googleusercontent.com/y1LIz-b6VcBb5HKpBWdY9ygT9LZfTbddroPkUDQzFvsd_e8BNbOnMIa8Bvb7Lv_ic3CuoyvBLzCpi4ugnJNLHZOnvA
f86a20dbfe1f4ab59240256c6d9700a4.16, 23.307951, 120.205835,   應公清公廟牌樓,   https://lh3.googleusercontent.com/zcsYxGbaonkDa_4iQ0rHCifrqXldbWCqFDnk5KCMFpDjJguU9ZUT2Guiz_UQuYLiBXo9Krqb4JCei4pPV8CtyKD10g
1359ab229def4f4c8462f391f9acb5bc.16, 23.301049, 120.132009,   雙春社區,   https://lh3.googleusercontent.com/MaRUXD0cUalJq4j1h8bBXdZnYwBZa95x-JCsUBRNTWN4R2Y15Q_Eq3ByDCl7wvwtCIb01EPtgC4PJ_oUG9tzCMBLIAo
ea76b8eba6154514b163558f42a9dbc6.16, 23.293392, 120.149645,   新圍社區,   https://lh3.googleusercontent.com/zADXii-X3VIaH_xcUIWvrdvr4sMLHkRz3uxzD6TorvRmfh_CkiNMymtiBjvB2f8Hv_psAcDW97hea-L91gV2QKgUmd5DU0ZM2Ov0auef
d32727f520734bf7a4c3b78af1b1fb76.16, 23.293632, 120.15354,   金爐,   https://lh3.googleusercontent.com/OKAXv0N3fe-ZNFeD_T5Yqwb6aLKiO0YkEWuqjHmO0U1Z5u5n-JBa2v2vsOPNplfDOeSkveMVONQ-JWsD6GiScAZq_p6fmgDokO57scIS
819fb50124e241efb190b71274a96199.16, 23.304085, 120.202129,   千歲宮西營,   https://lh3.googleusercontent.com/FIXJ0g7YjvksCYNjuYIdw8z9BphQy9aFFC0JqW72WNYdc8tIuVrw3ld3bT7HlyvxFNtFTIZpcmWyX-xqo-KJMFt5Zw
faa18be44cd5400a965f9016e0249591.16, 23.293469, 120.24475,   鹽水鎮大莊社區,   https://lh3.googleusercontent.com/DzgT4J8p3Ai9Heudx-CgaJsB5WcVLgwSZVmzDjiT9_m__MYrnwWhEgdC7E-0RbHqek2pugcQGrWKkABr7K1wCyXbbxA
69dc7c1d0d0541518c0037453ebde988.12, 23.625319, 120.55132,   永光基督教長老教會,   null
2b3e3c8c115941f1a284f82e1120680c.16, 23.616932, 120.395514,   三坪金爐,   https://lh3.googleusercontent.com/39ce6MPmv2KK2BwqItKpaOEoZXseD1OLgmDFq4QvVS54hZoFi5SHNqN2O8kgk6CgNMN6B5Rf_8YDd2G9V92ivV7-ACEv
73fb8252241148c7b010c538e99636ac.16, 23.611349, 120.435053,   蝴蝶椅子,   https://lh3.googleusercontent.com/z9zuQSR1s_ZB8CQXzsGf0E5ikfIzMskFXz5AbPOGfrUHX3HfG5dnbbQ5uQZxcvZV5160jjlDK1LN3-Vyj2_fvTlVr78
cc3e20cc2526400f8e561a1d67ae936f.16, 23.620881, 120.458191,   大林鎮湖北社區,   https://lh3.googleusercontent.com/eSIQGFhyECv97r5Ld8C_IVbXiQL18vxzv2NhnJXRTpWGYbYQRltf_vxXLMZBCy0SKegDjdQPgrZ02_RxkA0q2i8c6p7N
ce80a12d3b3245cf96352bc9221adfc9.16, 23.617072, 120.481178,   向日葵,   https://lh3.googleusercontent.com/4tdOBCBnQiL_rhN7Dfb1cI8ItmIctHD6J9X7ztct9DiVEvQuaOf3VKIT6wOc1fE12gDdLxHtNh5VyYZf3P-t-hPjMbdh
789af965cc9f47f393db831bbbf55b6d.16, 23.621715, 120.487788,   時鐘,   https://lh6.ggpht.com/hc3BHiDps03T_0X4VbQ-CJTKyC6fUkXjlK9jLiJiev38gI9TyJBcv_K6oN91MAvckal9ZjTGwIgumOt_Jt0
75c9da493e4243a9974742784b650010.16, 23.623367, 120.487952,   北勢小地圖,   https://lh3.googleusercontent.com/c6cc-9YZCtc1P00Sahbf3gqOdgw6E1Hjs9hiHWDywGLLJbae9JYxn6mpUH8fQbIKHRlRjsTm91dqLg7QAgrg6YJvLKM
794315ca9cb5424d964905d6ec3a501f.16, 23.624273, 120.496728,   腳踏車步道稻草人像,   https://lh3.googleusercontent.com/3jiZW28jI4pbV1k3WEM5v2peApqRQU2OAWLw17L5-MZS2htMcNKXrBvHB4pwnPROQZaYjXHw3-H5uvhGujUPepd2IMs
ee7746269c1b4ca783f7a436b2ad5481.16, 23.603787, 120.395512,   溪口郵局,   https://lh3.googleusercontent.com/biEDodFbRz_V_F8zQJcBQqW7_VKlT9s3-HIODuDsd5vS7JR3ivebpcOK4XUBZT0VxWDX7J45FL5WEGs6T_465LyIAFc
2ba094c13285459f976fe2821604576b.16, 23.600265, 120.408698,   溪口玉清宮,   https://lh3.googleusercontent.com/D4Mpi_DIHghm6mwwvyPsic1eUbApqxu7E0yIN3z5VimuMuMVEcCmjLarGgpEWq4MF8lRHdiAbngN7R81fOyOvftydVw
99c612c3513b44f4a65d04560675d87a.16, 23.602563, 120.436689,   明華里下埤頭福德宮主神,   https://lh3.googleusercontent.com/Q_GBJjWTF_ttK66sfnjdpKlIXuMmxEUPBn3hjKAZ7Nur_2yrdEQDHIy-Qm6IeiEux9SiPLCFJviL0a2feUsv3bljoQ
3ca49e590b9340eb87cbc714fc36924e.16, 23.591662, 120.284764,   獅子花盆（右）,   https://lh3.googleusercontent.com/3E_saTez2ou72uGWjZ1eyE-DisM8x_bLtRnRTvscSdNkJSkUUnZUojRUgH1nouUNF9bmG9gcFtE4zj7i8VSOB55JDscn
6ee39795ce894763a203d758b50fe243.16, 23.596541, 120.420147,   嘉義縣柳溝農地重劃區,   https://lh3.googleusercontent.com/zhQtCdMW9_-mhoPADQ3a_vSHIeqicDCZ1dlxZ-gL7y6-kogp8NL1wAzHozQtyin9tQRsZxOCeTGXv6J2ESFYwVQMNCYP
195f6760dbf741d4ba7981d667f63ee5.16, 23.595586, 120.44538,   大林My Darling,   https://lh3.googleusercontent.com/HkzU4Uk-aDOEAE09J_oSjX6WS2DJuAQdOXIb8UdT87nkg_pHb9EfYQ2UpwY-uL7Npn1A_DwUoUn36f6HbMzH2ueqxw
717777542ebf47278b5a8ff0de5646f5.16, 23.597351, 120.51832,   舉起方塊,   https://lh3.googleusercontent.com/hH-8NsFLwMKuJvrZKlgXaSv-8S8AUfP3ozglrRS_JZIGDLTAEymq7MEJY_uapl-ilsCb4YkMFGd_285OHIUs9-9R0ZA
7f410b29450d07b18afe9cbf85f34125, 23.585558, 120.554017,   ,  NULL
3e9a7e6bfea941e58bf63fc4f79e6a58.16, 23.575504, 120.396599,   本厝社區石碑,   https://lh3.googleusercontent.com/3pmVfantP3Fc79kZ0ME-ziSqTcPXe2NtxNTTzH_MX5sLhmg-MZv6oTcEdea7yPTEdL6TP3qpcWb0LOy_dTSaSyLcqQo
a2ba2783db4e48e0a9f5b7814844e3f8.16, 23.576245, 120.416065,   柳溝保安廣澤宮,   https://lh3.googleusercontent.com/0lX75y2hjbd-aMiLJZQjeeuCfmmKjO-n6LL92okJBg7FHD0CDhdsEDSXhxF9PCVGGd0K6HeFteTGpsbUYXkDbBT7H0c
87a4eb36b3b8adc195aa815dbd813922, 23.578012, 120.559144,   ,  NULL
361b51f7663d44fabae640d156365834.16, 23.567584, 120.317259,   六成軍廟,   https://lh3.googleusercontent.com/7syc9ulpD6I-Rk1XorZQhE3f1PmlhdOu5zOvHW2_f4F5OyOGQHWEzUWBEaZ-j_XptY21EoXrI9Q_3WK_zXcmom3SGQ
9458a38b730049c3a627e8188fe3c52e.16, 23.561145, 120.379753,   三官大帝廟,   https://lh3.googleusercontent.com/yBurV_vMzkq1AobjQy-2_LjYM-LJoiOIgPFXxsOT3aNXjhGHXesYT34_oLzFcNyiieP3DkUpau709w52jVZ_HG-VEag
31e21fb9931f4f1d8c91d458842c8560.16, 23.557798, 120.41897,   民雄國中公共藝術,   https://lh3.googleusercontent.com/9CAxZAGifznDejTLybRjNS3EC9DDRBNS_aRK6-70aLtuzizcNGtNT64_LKchk7sGMxBb7i5-h-9Zz2P6uec4vC007Q3H
df7b9513a9654a579aea052b0e939450.16, 23.559167, 120.422276,   民雄鄉運動公園,   https://lh3.googleusercontent.com/INmcGDbjlytXIn4dPgDUKB_8XZph0P8oG4bGEYWLh_y6xLxUe6Vp6l0wUWUQyuXNjSOgIgwLpq2ocHg4_kkQl5QlIg
5693a69d4e8b40da98961341163bb13d.16, 23.566277, 120.413309,   福權小廟,   https://lh3.googleusercontent.com/qYuiLdTmiZabCWzp0_C4SQxM0PPnDzsyRPz8eqsXi1au5pRTG2XDfCWzPkkGwllFeVJ0o4dhZ7ct2wco7xIB9Q0ITm_3
7f6dffa9237d4ba3a6a197e61c70348e.16, 23.558088, 120.433982,   白點青蛇,   https://lh3.googleusercontent.com/t0fh3Vn14P8GF51nb-5mywM2XGV_lmz2DTYf0ZP-u-vmJ6TB7ZECRgNBRMLgFZg201ozW-PPcqw3iYAZISePaQ-m7Js
a9532fcd8e4648caaf6c3262d26872ad.16, 23.56059, 120.45106,   豐收村大學喵,   http://lh3.googleusercontent.com/50rZSPeecR26-C0qP1tEKGk-ehFf-DV6NWhqwR6uMhJ7cc0cZnl3GPjkLOdUC9a1MoFQ8sO52ISWAvR9OBQwkyk6lM0
d0b21b888b5a4ea8b6099d81ad74673b.16, 23.569912, 120.430666,   東營,   https://lh3.googleusercontent.com/TiKQ2bPkC8omaZWjvDFHPZMn2YToljk8PD05xmfl6ej4M9eED91FsQm44Q2XoRbpjX1TqduDwIGCcSEY_zth8vSEGl95
9c34c055aa294999b064b08219198dd8.16, 23.565524, 120.479329,   涼亭,   https://lh3.googleusercontent.com/FD_29X2Sb5xJpHDygVADEKu4c2TwncuZKJCBImd8ErZVaTiK5i2XbzJGGpcSYna_GhN3CtGrHIykAv1a66AespuCfg
2c19bd2125334ee28072bc4fb682ce6d.16, 23.555771, 120.345926,   嘉義自然史博物館,   http://lh3.googleusercontent.com/ILPhKom8ocb3sJWRKax_pKr14yKD8OZctxX-_63VrfTcGJ58Jr5iG1UDFqbiDGqgMJvZDWf8-KCitoUUB_Ywl0iLGViz
4502e38228f0406e88d9c4a623c117b5.16, 23.552203, 120.346899,   骨牌藝術裝置,   https://lh3.googleusercontent.com/U7ooNKzKRg8LwdYOPAWUWf4lMU9Q3OHR65B1UohMwVSCU0R8SZwQ_bbkQxT1jxn3nCOTUE0Y1lcfzEbjrFJNHZYwhA
468c5c9c0224419287f616d347ed877b.16, 23.552474, 120.347213,   致謝碑,   https://lh3.googleusercontent.com/LHth01R45aWXLfog71Z8mNBnOSMf5tGyTNLT774oV5W_iIa9IRiCSS6-zDFawIRjsxacXAjIqadASqSn573L-5YbJbo
cededbc1aee34e9f91540e1024d3b221.16, 23.551406, 120.368178,   水牛伯壁畫,   https://lh3.googleusercontent.com/XsQ2R8glE2XSZC3BY2LzPo7mCGZxi0xvggnyM661SvlGw_ibUmoMs-0q_49VHZIjKm5O_wkf4XczPd6bR_RoUeqC87a8
98d4f3ba802d4705b94b4a8f542d0a7a.16, 23.54602, 120.410729,   民雄社溝小廟,   https://lh3.googleusercontent.com/MchkZldC3sg_GFydBAANNDrrvHFrrZ4IQBi2nKK_ycEqbc87HsOCjzdbIaaxhGoMGBtLq0GVpYPIq5NMeGRt
5d48c61b62c34c8ead7a9eab0f73a76a.16, 23.55414, 120.425486,   鯉魚噴水池,   https://lh3.googleusercontent.com/LELDj5lfOkVEwgIzQXEATCuKApQS38Y4OKMWzJRa2L1f5u4aNyvmci8FQK-LrRxP5J-MKNtLtdNGpuOSNIn1OUzyyg
18c2619fb92e4dd7b82849dd0cc8bc1a.16, 23.554513, 120.425427,   民雄公園蝴蝶,   https://lh3.googleusercontent.com/xFfXmw-d9r0-YUOwSBhgZpIDlqpsuWLitP7c5acQnwfXXS3ikvsRxsqIPtM25L6cuFlTF-SMxKMryLyEYaGX2by5AKQD
8ff99d85408a4025b4a07903f3325bbb.16, 23.554638, 120.426024,   民雄公園守護神,   https://lh3.googleusercontent.com/gdHidHRdVftlBfrKJJ61Za8QF4F_qwkMvvVsUrenLO2ZYsERndtvUI5BBCU6i0FDNMCGNW1X-1_8ysHeBKTVai7b_w
457f7c27f7ab499a89820c46f2399910.16, 23.554904, 120.425861,   民雄公園,   https://lh3.googleusercontent.com/dUtd-enNGvS_R8noc2r-NzlkssdevbvOyHJln9PQEycu9TkuZpr3KD6JBPBPY9cNlycm4cgsgmrLKoYNrm4m1T-mL5Q
c9440e53771f4cc495d0b0e845e2546a.16, 23.555186, 120.4277,   洪慧記祠堂,   https://lh3.googleusercontent.com/NTaZbLETlyDZG_K70RaZ2WMtgoZ-vZqlT-AT1vrxDwLNJCfNZumSJ37WSKVPfpK_1Qqkv-NeEo5gHvnHMjqVeURqfFZA
dd13e7552b5c4b1f8bf9ce976c6a8ff2.16, 23.543685, 120.432612,   嘉義縣表演藝術中心,   https://lh3.googleusercontent.com/MgrGR01-xOGBuyDBH3rRCy3-rh4kaBjWpcI6-VKrbH65VUhAi86zEKy--0UIKUVCLYfS6CbyUyrOcCWEgpjFqlKWePW_
afcc64f27e9948859c5d2737cb7f6f82.16, 23.550642, 120.440634,   五營,   https://lh3.googleusercontent.com/P2Cz4w-LUJxWCjcBjdkUQYO04iXiQVtq-cCUKM8v1gZ07PQfovY_GDb0aVEX4d9W1EszI7CFng2R6y9E4M2ucxW2FTI
5317a1bf6f3f4ac2bf03e56a13cccd95.16, 23.553144, 120.479898,   旺萊山 祈福亭,   https://lh3.googleusercontent.com/EKUcFaJBsK0CL9RQVrequLGbmp5RmIEnBPOTicbw5DiBNQNyTdqux0yq_6QsjmIMpWawXpeNFqfRPz_KNDGYNe7T6h0
c5c712f0e1d74b8e9e7951c487247ad7.16, 23.537791, 120.35076,   新港香藝文化館,   https://lh3.googleusercontent.com/awfmkQxxmAMB7sDToz8i1xzqnIAKLM9sqtetHT6uTw0iOsCJNdrP_4PappUWuBuM9KWjE0achjUtDHLP7n8NFBVwqw
a9da832f35aa42f2b579cd07fe74f6b1.16, 23.537983, 120.347606,   南營,   https://lh3.googleusercontent.com/q4reL14Y3hpbXL9GU-vaDkngcTArRk64IIzNGxPUdJJv0FjY7gMSz-QyG8RTrLAvPDltbYqnWjoue5U-SNU
7742b35fecf445219a7e5cc86dd3c389.16, 23.539996, 120.346419,   保安小廟,   https://lh3.googleusercontent.com/r8RlKbUdBpIgEQwtQFbbXU0QV7Nq8KUUNCvz2eiIG-HDB8cA4aLET00sCmBSb1slKvndxGDW7gtOImSKF4MbdrvZS14
900301245a67490f9db86166828a4fd6.16, 23.540409, 120.349026,   北營,   https://lh3.googleusercontent.com/IocGWJxqqXDSCN_pAHqhI-7xRZk6zvzzMCTTornjPt2GakJVY6ELc2wS2S9Telq-dFHlbIc3SPm2_uF8nTrtW05OViw
35e36e47efa44a82bdb6bcf55fddb86b.16, 23.540205, 120.426935,   噴水池,   https://lh3.googleusercontent.com/K_NSmiEP59SUo55bN02f-m9rapqt7sszMVaCP1XK-9TvUpNbsChGrCX75noytbG4rRrSatctmjD0poQA4hDTb0u-
d0929c59ca2e4a8cb770c9aeeb82d440.16, 23.54109, 120.424133,   民雄農工,   https://lh3.googleusercontent.com/5ddeiXj9w8AMYAhE1ACo8pWL54dh51GMV6TDfQDKF45Bzyui_oVd9IQSB7klNl3BZ1Y7c16bXd-izkW27wroAlBzuiMp
e6c3695fb4354d2ca018eeca15af36b0.16, 23.533848, 120.456855,   蔣介石遵行方向,   https://lh4.ggpht.com/_chF6sjzJJVvlAdp32s6sFe9M7387W3taK8FQGZAD_r60XSlKIw5H3rkATVQwn1GvvNG33rarm2n38wDCbOA
cb8ad121bd5d4c4bab44c9a33b56f11b.16, 23.520589, 120.286866,   三義村代天府,   https://lh3.googleusercontent.com/fwK6X7nUv6MzXdT27gIy5s67hF3KU1-7dB-Pm97INCCYeep-Ki1uNxtN74112vwnHgucjsazu25Vq4osX_hP3QPMofI
159344935ddb44918de2b9354d1fdefd.16, 23.517124, 120.35933,   萬仁公廟,   https://lh3.googleusercontent.com/-2EqM6Ray-1I2JN6AEfamxoSEPgIuaDyc64DaFXQv5I8BeYVXR6NqxqApZkhxiUGbcGsA0_T89Heck9izJttpuTyDL4
94cd12076efe44e0a72dc9b9fcbf8480.16, 23.520025, 120.35154,   月眉之情,   https://lh3.googleusercontent.com/2o7UbY7mk3DBn-_AqtDQSbT4Y7WhJRIzueX9ezRcJMtgrH9Yk4SwsVuU_8ZVNty0JWd_IsyyY9vAsr_24QNm90KEwrI
47e6e3b808114208b4f741b5e261461b.16, 23.520177, 120.351922,   可愛咧,   https://lh3.googleusercontent.com/Fhky4emK2m6spzqrpdo6rI-x6PLG6TKzDrz9aKh4FOYjS6njrp6ITTruQJeRwrsXXDp_TShiRyk6NIIdd4VuBinOKLI
28c220589d0443b38ce8b0ebae27bed9.16, 23.521105, 120.355244,   蓮心悅目,   https://lh3.googleusercontent.com/waIJILuXCEpaOJafiwUvaZ4AK3Up1iW2VGaY_3uR0YWohLkwNDdmyOVPFXjiOdbwtHbYKr0hnQflodCzWBOuqjf7p-yO
28d41f83b3cc4662b76755ba726e74a9.16, 23.521493, 120.346066,   Cute House,   https://lh3.googleusercontent.com/VJZs80FOhXuYSPQp18X4-q_oI9-GUZaJ3w6E7gJ3RjjCNH0e2nvnBg2CW2qj-3_GWG28NQzgBhPqWrsLeqE8NQVNRBdw
b262a61514214f3c828384c55f8a4298.16, 23.521755, 120.353336,   咕嚕咕嚕雞,   https://lh5.ggpht.com/IAOp9TfvmQ5-3reeQ4uMhNshwTGWWZMZb49lgjETcF3flcfBnFv0y3NBOxxa5Pv6a3-DpegNtciiNGWm5a9Q
1247cc5ad17d4c1aa09ac49d0f0339fb.16, 23.521839, 120.348122,   彩繪電線杆,   https://lh3.googleusercontent.com/IVRIGzXsO3NtGbT2RS_RIKd38qgaotzvsVt3LCiFefCj28gVm19Epp6cE4NIla72oAcB7vOm7KCOZiI-Hv7PZuFv_EM
e84c2d53af6044d192738d786951303c.16, 23.524128, 120.35901,   路邊小廟,   https://lh3.googleusercontent.com/3uRW2UTh2LXQv6ERqVaNVPI0d25fWxBJsYe5jw6ZDxMW-csXP00bgUOfHBSOEnXy18cRsKBS-zR2fCdBmD5e9_zpZ913
837045b7f6f04f8caed05c6066835b06.16, 23.523862, 120.348953,   西營,   https://lh3.googleusercontent.com/bfcAagDpfqDGmMkcVhmDrGERMuIakfFK1GfRm9U0dmvb3HmN249lzuoqso1OQSmLPH50845LiyJaMcCejMwLoI4hfH8m3g
d9fa478b3d1c419dacdb9ce9e1b8d264.16, 23.521061, 120.387178,   木材鹿,   https://lh3.googleusercontent.com/MmwkKGq3r2PV6Sj8peXY3HgyVcioPWuT20lMOqBS1IS-o4rSy4fAAeUvW7BzjrX5DvT0EpZzVkn-vUfVSfbz5Dr-YEpG
90ac7f9d74a241cd984c95af94668e02.16, 23.525087, 120.373437,   橋面壁畫,   http://lh3.googleusercontent.com/gHXckQ7SOiJ6YJFZk4okKUT6EA7CjJ33P5M7UG7JMTYwP6hulVdWirQ33-2nTSXyWLKUPDzGRvxl6FqdbPARnE5uGi4
eec77b2322ba4399b469ef757aeb9ef3.16, 23.527576, 120.36804,   福德廟,   https://lh3.googleusercontent.com/iIBRxZPjW-8r8WnPyBhjgX1kbOKNvziRc8535QVBgyiY0huj3-KYSZb7EK6l8oj3kwVuO8-so1VXHWanfjaHBmpCeuY
d31396dd9995484bb05863654d46b875.16, 23.518704, 120.403007,   廣濟宮五營將軍,   https://lh3.googleusercontent.com/lcNs58j4tYOburyoT5DPDbptHbJ8zymNTavXkczt2BnNf9FhgSz-F4WqgKFikKKCJLN1f95pf5kiPgiSes6xiitpcF4
b92dc4ca6f274d95b3faecd3979b7561.16, 23.521967, 120.428092,   熊大,   https://lh3.googleusercontent.com/iEYVyxoGkMVY7UDHnH4gOIzuj-F9kxgNOW-bk0lgIHZfqytW37Vrd33_0HQuUsLPngNmlf1LxDDWiDx3w4tQuJ77Y70
347c5ae9ee583d729f9ea7e215d9277e.16, 23.526052, 120.42044,   ,  NULL
23c8c41746794653a3907bdfc2786954.16, 23.517675, 120.43323,   金興社區石碑,   http://lh3.googleusercontent.com/Jj9hjLX0W7da176W58mMuZJAunCC4pV6nAQVWYsQktUdM1Kq2vhTVShu58SSFJBX40bvCq1HAXrYa0bVoy6AnqrzyGk
3da3d67e6db446d7b43346f4db1932e2.16, 23.517692, 120.433264,   金興社區石碑,   https://lh3.googleusercontent.com/AdCQpQhv6Ew5nm_1suo5ud-eyg1B3YVS5V5EG23xHY2v8kccVkqnU_WNU2QIcUpQNH7Ey5u4KZYQ2w-5iTwZXagEq1UP
9fcafd041b592bbaaad4f8f956044504, 23.52045, 120.547985,   ,  NULL
858a976fc9aa45958f2d1483735d4cf8.16, 23.524845, 120.551418,   三星宮,   https://lh3.googleusercontent.com/s6ozXN79gpIuClxnUDHOzQCoo_hAfn9x1pIiGag4HmISudfL3_IPbQJiaqDaddH5zAwyCSeKewCOtbjBJjkY6FbG-W0
a89520156c154f11acba6488624b6cd1.16, 23.507139, 120.314104,   東營張將軍,   https://lh3.googleusercontent.com/nbZeqpRKD-Q5obKKbfYdkQEpqu31oZkr2sL7B471ANQBmpsjjZWOgkp4rnaqLIinhhry6SIvTgZJ_Bf6Nm-2Jk_o1Q
1968c200c8664d21b72d96dd28200fe2.16, 23.50629, 120.336832,   太保市入口意象,   https://lh3.googleusercontent.com/ODGRItR6TtSsp9Ul67BtwQtwhTaDjSod63ogTedk39JdZHkTUqLslp7SwgKlUYLdE8hrMc2CFTJgD-bjY7ZGBdWD_uY
2f26621708aa4ebc995a68dae459a950.16, 23.507433, 120.355468,   顏如玉,   https://lh3.googleusercontent.com/lOAaZbsIXGWNhgjjs2BMKKbFXpHtkAe0iOBsohzHvtR0it6qhmxV0VUsaPFmuJLEAq5EebpC0BhxOCCIMD0IXdXaHGdJ
2752c3cbc3944e099d75515a7b2c0e35.16, 23.513775, 120.334628,   六興宮,   https://lh3.googleusercontent.com/9kn7v8eS10bMCYanNnwrLasGgPAabftD2mhLjA3bbwTqfz3BH9OVmT9d86jDq6PyjCrrS4JOilYToIKgORWTMfBO4F0-
0fd72d0ef1ef49ce839794b233bc3c9c.16, 23.515169, 120.359849,   新港鎮安宮牌樓,   https://lh3.googleusercontent.com/-MBI5OMicA9H3KmNkdVT_Edz91Ttxw013rCg5of_dpFEkEo42QIOCkGMW2HlEFwWtIXZqgJlAsQpQDltKHIh86BZGgM
ba1b0e340a4f4baa9f13847ef074ff45.16, 23.515906, 120.35951,   光天宮,   https://lh5.ggpht.com/qSCAh4WDa3_YNLFTI0zRxRCRrlQqlpFnGLTB9w1KjAhte2tLoN1RAVRS7wz6IGGXOoiVnA_eu0CmS8OP51KPPQ
de92715d108447e483f6ac4660316931.16, 23.508557, 120.34709,   回收場壁畫,   https://lh3.googleusercontent.com/q29WmGCGSKYZ_3OP1yExXQQHDlTauMF2FXBgl2XEtrDX7N86wWw7vFxmNDWYKr_jyd6YoiT0ZPuOkw7oo9HM1-5-tLA
6c168d3cd0444778a6a58b5ff024c191.16, 23.508643, 120.346822,   回收交趾陶馬城,   https://lh3.googleusercontent.com/jagiAGTHDdzMa2u-f2TAmChmSBem1mWRylCOmYrmIXkiT2lh9ouKGsrx-utcnkYC87dftzrw1PkRaX7b4S7FsVdwe2LK
e0ca8ba831c54cc99423be6696693c55.16, 23.505932, 120.401076,   溪畔仙境,   https://lh3.googleusercontent.com/QCpONXXvJFKE_8O1skOAzv51MWn20v2968kTfjHdHv5jBzuC2NR15E5r6sLq_H9mDaWUBTjoXblf1U4LsY0wL7ifPMk
a36dd84d495141ceb873b08757899e2d.16, 23.509887, 120.441256,   荖藤里野鳥圖鑑彩繪矮牆,   https://lh3.googleusercontent.com/8Qb9ofb8j2DA_2fRiiJLKO0NBq8pIWOePguBdL5aYqjuD7Y48kSQ7KKR61Kbpre-QAreHUxsUPHYBLdrY5fJ7QSUbBU
e20bbd8a45f449639717d6faec4d1b25.16, 23.510419, 120.441537,   荖藤里龍貓家族彩繪矮牆,   https://lh3.googleusercontent.com/yPBFMU0ZaPk2uMhNKEuKVGxSbxWSs7U1Q488V9I1u13gIKsP9vwkJMLvb03H7QYifCk3z5wvFaWpDuzgmGlCUXBbMKg
30f195feb9e047468c5b2633e93f1fb2.16, 23.513414, 120.446635,   後湖堤防2K+300里程標示碑,   https://lh3.googleusercontent.com/9xqmEz5Amv4IAUlJD3mD6WDgsUKDdT6BSbgFoWSzB9kG1jl8uQKJzxBCu3yQph3PLYrlDAIUVaqQK-ZJvvcYvo2cgDY
fdb31bb61c3b4b5a9e9e7b6375860569.16, 23.513617, 120.447604,   後湖堤防2K+200里程標示碑,   https://lh3.googleusercontent.com/iTnyQnkJRW1Sz0AVxZsPp5aL_4Gn59WIyXBRULsg2vq47aqHHl8icoxUlAotHWEz5tCZnfM6bNE9vCTD_2Ks0iGk7yw
b6d4d76a931531b695ebfbf95f14d378.16, 23.51403, 120.449486,   ,  NULL
8be8da65f84542c4808f2b5974439903.16, 23.514211, 120.450462,   後湖堤防1K+900M里程碑,   https://lh3.googleusercontent.com/rwwbDEtH_-QWKd6qCaJsTOjg1rs8J63bGAIF7k5XnUHG5R66GTfj7n9Gj0zsEjzqiZvRsEuNqWalmIbc5_9TPf6zQA
3e7d10b862034f4da4d4e604df7e8c56.16, 23.514826, 120.453363,   後湖堤防1K+600里程碑,   https://lh3.googleusercontent.com/ildQX-YjZT9s-sL7NRJqLTcVtiKqRIDbWNGiw93oITF_Y12WAWZMuyLjoqWg9uYyOF4ECOMmgxB-rNhU1JcAAXK7n-U
363228ea74a3d1a49597c09bb9654ccf, 23.516004, 120.548432,   ,  NULL
ef9f165a19ad43a287916620b48fb104.16, 23.495462, 120.293199,   蒜頭大招財貓,   https://lh3.googleusercontent.com/qnAoZ391hkjN9BQuBd7sppREEZ80EWCL7pWTd5hWVP9PlN1zfuTwiorHbm-SFehKqM-jtKfFga5YU7y2HAERWBX9D9DG
8d2d517e25b849728171f59ac1db91e9.16, 23.49983, 120.312827,   灣內國小三駝獸,   https://lh3.googleusercontent.com/8Drb1DyrdFKRXWMG4aF7wLdHerru4TLST1R1Y-t1Ocw2tl-ZlHo50Os-bryl79WCw5MXyGIy9qbanMJRyFq9WkU3DA
be2bddc5ce874a23b8acfe5c96bca251.16, 23.49146, 120.353468,   福安宮,   https://lh3.googleusercontent.com/tYma9AHl422Wo3ee2rGT7o8zBOo_sXuoBBB8hJleSZlaPHQ0MpbBIOvXe3mp40DFpHTUpCSRXHQd0j0OMoMcXmMrNHE
b9291009273f4f06a2b123a3f3743687.16, 23.494892, 120.363094,   過溝自行車道小公園,   https://lh3.googleusercontent.com/we_kwS18Dun0_8OyHZrBH2hTqzUq_ilPd-LogTvAIoLtSkfaOZ6095Ut0gh2YyBwy-4BtYmtpSjURN0hxFgALH4SwqA
2289e0aa8934416cbcc9b47d0dfd32b1.16, 23.49688, 120.33999,   勞工社區,   https://lh3.googleusercontent.com/DaaSA5lHDFNN28zfgQXxZCVd9d8ooFlth8GlA3Jn0L3z1kNi-HO9HmSjbf6skN8ALV-8_RqGF4rFrv8h2q7MAoMW6w
01d423bb9cd9451baa6a1e7d3111fd90.16, 23.497568, 120.359698,   過溝社區壁畫,   https://lh3.googleusercontent.com/mq7w96rYhjsLenUsez1AyLa4vlpP1my1vdelx9J_yhxFLoFRhJcBU8d9khVKsHcxaWu7u9-we_gtbZ6vyW5jYFh_SV0
e58f19c220c248029875efb77d77850c.16, 23.497965, 120.360543,   過溝基督教會,   https://lh4.ggpht.com/wCGlyGjgTluuV4AHLKp9yUpCRFGsBXyHlOZHy0K5dAE_EzRJ1XsZAm7BIjyVMnBMibYRuQUYR4ud3A_v0ufr
9fbc8491ede641a5b2f8741b04014005.16, 23.493779, 120.369402,   六年建設埤,   https://lh3.googleusercontent.com/bl1a8OD3XjHNXxWcefbw7qxzB4uZS4dMl5qmXuusLXoY4XV2TOND9GL_QWr6--aINh7iwPh1mtUiv3BcAhQ7i4VSbUg
01f08f6dde324ef7afe1820c4138ea78.16, 23.495785, 120.3886,   歡迎光臨水牛公園,   https://lh3.googleusercontent.com/5WQna7RWnNjQSXT_0JpanInjTGq44wO8WJbPNQLHKU6F-9uz1iq4RE6I7HoZ8g8H3I98dBXrS0B0dO3Q-59IyLxD6aA
44249e5b46664ddf9b3275c2912ec9ee.16, 23.49584, 120.371161,   鐵馬道裝置藝術,   https://lh3.googleusercontent.com/FWcN6HjwVOUcj1BKqBG-RTnwVR7JI4Gw8FjY6osKQKV8FJtlcCn-g9Bs2taBxDRmMLLzBKry48LHG7Jcg26s3ydoxg
b354526fa0433a8bb55f3516bdb6bb6c.16, 23.495842, 120.371154,   ,  NULL
e704d3c41255495dad551ca67b324ca0.16, 23.496319, 120.372267,   麻寮三合路牆面彩繪,   https://lh3.googleusercontent.com/zV8mJt9Ko8AarXpdiS-nWqpfdn5LJZZZCK-Cqoy9oFf7vG-bNNE6vJDPPMG8hPTnOeD4VjdwgsGr6qHLTzO5gIZlTBJv
16f7a948fd0b324fadaea3f410c842a0.16, 23.496346, 120.372186,   ,  NULL
238e39e822d44d21a00d4729a10b8df3.16, 23.496437, 120.38431,   水牛厝社區,   https://lh3.googleusercontent.com/QSn1LTKdOVQrqoQP3IGC9bfF49YOGFKmmbkucqAxTlpC5ydXIKBfdbghrFbmUmYMB2YVKgXXvX_MB7vqRssFXExDvYyy
6b69c5a7db20478eb19c7d695739e9c6.16, 23.496846, 120.383839,   破病虎,   https://lh3.googleusercontent.com/Ok4Hnsku7fgmx15660zjKUKoML3GGn70kvKh3El2b9iTnrnGWiQvJV3POFU2HTjk-F8NTTIeD-E-aLy_hUqgj9e8zIw
bb9b27a0e96744a4a9720fafc95ec431.16, 23.496776, 120.383629,   人客來這坐,   https://lh3.googleusercontent.com/DpN21w3ryFfM1wpNwGJ6nAsFl1ZH0oaRn_ZBu-RUvxM0ooguMikFmVhDDrcmsBbw4MqCh1Igiw6cTTo3S9ZB08FN5VM
a6a9e27d723802f1c737017e97f87806, 23.49205, 120.396954,   ,  NULL
dcb90ea734eb4629a4626b70e72d4103.16, 23.49265, 120.433378,   宮天代市義嘉,   https://lh3.googleusercontent.com/tHZzzC9oVJSom_HS5TuOtqopNiGfRP9E6oD7rzGif5nc5UTEZcLxVmsqjPV8t9_i342HOlZleQfoNth9zXIklk_htQ
ebf19e354ca3c97bfa0fa418150a8db8, 23.49255, 120.502821,   ,  NULL
5be6ebed266c4af793671d9429e5a012.16, 23.501718, 120.535708,   菸草歷史文化園區,   https://lh4.ggpht.com/ZD788EeYhQSREgHUJFTDMmcUHFCxEEpdiVjSYuKTmxj4NeoBmy3XNMP0D7lBXJ4VOIMWI47QZEc6OHhyxLw
17046b31d4af4993b03da5c927b158bb.16, 23.485089, 120.293355,   西營大將軍,   https://lh3.googleusercontent.com/drRA1H7DG3LAtmUiHogG58gz8c8kOALXgbNnLml3k908RQ47rEIpSzgpEK6fOHiMSCb1QsB5hTOW4dCJgOpRIwsYctsn
50348c0487f14abcbda977a7eb9d7d9b.16, 23.478417, 120.304179,   歡迎蒞臨六腳鄉,   https://lh3.googleusercontent.com/wuAtALUfAuH2B8C0GmlXmi1Huv0bxUVrfEPms42bVrdrNHqoHm-FcptCERLnVg8wa5NpV2GK7Fni77w1mfQQNflaTQ
6a0d587bd4c946858ea255c0b53d08e1.16, 23.478763, 120.303922,   六腳鄉地標,   http://lh3.googleusercontent.com/KmRphfi9drQv9Flv5aXgnhOGUMXa77x-We_Sk-V4tfjMacBmlXs719o3xUbf5aUev1pgfc9MPJc9Hn1mIHYxSIdoRaM
8d25c7c0ceb04bb9977d2737bb666365.16, 23.478854, 120.303336,   碉堡,   https://lh3.googleusercontent.com/leoXRKAbKT__W0muUnPoxInUW8K2RYT378s5M6EdV_aamS_x7YP9n9JUxzzVheVBOflNaBEkePgRSPAOYN-QFVbn3jo
fd5475ac615a4737b344161527510fc0.16, 23.483665, 120.348379,   魚寮橋-古早風景彩繪,   https://lh3.googleusercontent.com/GakZ1BtLjclXk7GhkK0r8LO1QzeYA7iMjlVPOVJzyLMXAYV8Y2ZvPFc5ELzQg5MhrooVhI5EQrlL9VnUUCw9i9tET8oZ
2467a4919ea4421187e733dee1c8d29f.16, 23.47864, 120.386588,   熊貓響食壁畫,   http://lh3.googleusercontent.com/Z8bdvxC8Lg3Y_WL02ri3meEM4q8sZqJhwPwqNPWYuzId9N3BiK0xNaufQ1_m5FLtiQgmi3Pklflc0kcZ9-JHX1UHu20
716fbf344e6e4e74a8e1240380ca9c2b.16, 23.484382, 120.388427,   嘉南大圳自行車道指示牌,   https://lh3.googleusercontent.com/4-XFxyRkfUn0Hwls2dSGJgLFmIxIXUXGwZnaZigTNtfzfKqc0IBMr5V1HESZLFH6NJIt88d-HO4o2LKJQ_EkWFXfao8
66738f06323942ef84ac691a301c6016.16, 23.476817, 120.425194,   白蓮宮北營,   https://lh3.googleusercontent.com/Wp5izmGEX4eZouMNduV2j5eXnclCm9OzE-vaTylM-yowDd3pYtc7AcsQLtC30xdT0uiBzFPHYTRpOatyj2pTHCxbZg
1901057149d44193815241c2544a4d18.16, 23.483163, 120.409895,   古井與母雞壁畫,   https://lh3.googleusercontent.com/3k1GlQndrQUnl03bkrJi8CjLYfsnKULihANuH6ClU4Vd4MxMxBG19xJwqByDxDKemsnUDPPwSPUWOzse-KWjthRDamQ
7db984b4063d410a814aa68e833f3752.16, 23.483642, 120.410985,   大溪厝之詩,   https://lh3.googleusercontent.com/-EMf2K9ekvXEMMvXHDwKXoNV6swD_kgltE-P7WvJ1o5qRiaB7wiROts5PLOT4Y3UrTWNq8MDdeTrtDdwRuFOTWacZI4
fe8bab27a52049479210f40a3590ecc0.16, 23.477123, 120.440827,   造型石柱,   https://lh3.googleusercontent.com/KvH5rYJnUyjncIIG8xZ-ZQvKbHBQrwCD_kiN-IkzML8Imtw-9b_YGoWcVilrGqSNEtb9clY6oOvMnjKRMX9740EV0Fl3
44e6a600ea4c30038ad73c09c87968b4, 23.481559, 120.43102,   ,   https://lh3.googleusercontent.com/XBrV9LGnrekOT66bp2KkJUdzIUmHY2GX34GKSinQ06t0dag9Oes1RxPauFObpTzUkTbhn09CJvYYjtLfzmav7tA
d120193eb2bb1b0b1b07becbb54a8b62, 23.48359, 120.45927,   ,   https://lh3.googleusercontent.com/XBrV9LGnrekOT66bp2KkJUdzIUmHY2GX34GKSinQ06t0dag9Oes1RxPauFObpTzUkTbhn09CJvYYjtLfzmav7tA
e2d2d1167da14354bfc7a97d7be658bd.16, 23.484311, 120.449206,   中國龍,   https://lh3.googleusercontent.com/P6I_LQNrJFfj1Ksel2UuH4lMG1uAQVWy_0oQpyixfp6XcdJHmUr1ZncKecNieXO4Cp6n2vOMJDvPgtYxDJ4xO-YJ3Q
1053a4593450adf59a300e6e20d5a676, 23.4854145, 120.4478278,   ,  NULL
4abe06599a4a45e4af4bb49b8f6bee73.16, 23.476072, 120.467349,   聖母,   https://lh3.googleusercontent.com/l3uSPH89EcukFqDgHLORBjomAaQ5n6X-RMM5jMqJJmAlcT6fmUKe7hQHFi26M8plziwnwhUsVMV5e9y_r-nKX1XS8A
a61ca14710fb43809c419e91cd0bd572.16, 23.477594, 120.470182,   大北京,   https://lh3.googleusercontent.com/8XDSrb4p6pj_80BYaKTTUmFymF28H87mpCOFsihSxrELaxJFpq-BgOzMOQG8E9SUfJruHz3zuimw7ta8M1kQmJMlD5A
a5e0cb335e234113af973ce16ffdfac4.16, 23.481794, 120.482182,   三好蘭潭，傳為美談,   https://lh3.googleusercontent.com/3JGQSPGvDczf49xG5bQlLQ1kJLQRALSMYg4VfQJvk4a-ny4tR_vroFu4-pAFajiyyUj1H6Ejm7Trq0mdkLC8ANPb58Q
eec42e6ee7b448a0a71c747f9f3a23e0.16, 23.482481, 120.463545,   尖石,   https://lh3.googleusercontent.com/bJnojDxYiomj7YCInu_Y4SpP9M7tTjzuirvDhNbqfGU-4zZyJlxhWhdpJH1xobKVW9eKvm2egQcDxDs76KVf3vjc-Bmd
82114b3fc3bc48a9aaa622db3603589c.16, 23.483622, 120.488449,   東洋獨角獸,   https://lh3.googleusercontent.com/ZtdWp3HWeWeeyvIjNtGBLiX33oM1Nq2l-Py_eZloek9VpAW7jzIbjpfcivJ5ipD4rTEN6Z_1hDxe28aXVTH_5A
c1fafe13462644ee8b17562e2d501e84.16, 23.483786, 120.486277,   彩繪裝置,   https://lh3.googleusercontent.com/QJI4NZGupU-1bopplfyfscaFAyDwueVS_v78NPQVrzqInCYOLM2GLduCNMl_-1MtHDUKRkfwtGs63Cpv2oAgVsDGcKIr
b4011a13d27d48e5aab3581f4b54d4c6.16, 23.48895, 120.465172,   文財殿西營,   https://lh3.googleusercontent.com/l-WlUaCmgw6L9s0BG3ppdIiwRNg_M-OPy8pkT8GuDJvYtTo-J0SUZdZlJpVp4by5K0oSSAKkMLnGDaql_W76QPV4Gfs
77f24c800b6c483d90e4c76dded74d64.16, 23.462559, 120.292967,   舉杯邀樂,   https://lh3.googleusercontent.com/VF4nHXSIxpkoPM-yEBXfjvxivxp4-NhIrjvGo3vvDxb6xbXKRgtxn_jc4BX9Czsn3Dya-m6m_eHkU7ofJ4tNrJ_iUdM
e5144e70b10747c891dca1ccba4781ae.16, 23.463805, 120.293238,   CHIAYI街道日常,   https://lh3.googleusercontent.com/f-eDFgw_O2RQr9oiB1B79-XAA8OWEvLC_KnVxj6Mndgr0hBWgh8BbY5e_xe34HMePiPT3vM5ZWb_n1AaP4B3C2N_fw
d37953b5450a4ec39d003ab5f8fb528c.16, 23.466824, 120.293987,   到處都有的嘉公義母,   https://lh3.googleusercontent.com/_T-W0ur_h3SNv87BLGERPtvABkt8Yvy-FqNmtUUDazQCBEKn_3_9Os1gf_b8x7IZgT4s3KZ0BtA1bPrb1vx_hIMqv0o
490be69cf0734de59ec03be3c1471888.16, 23.464565, 120.298315,   信義圓頂,   https://lh3.googleusercontent.com/BCG9-DJToEbJ05JpUCuajHGTH5_AoOCKs4msh5GsZgI1Fknk2fjmwV4-9H2gnH7hW55YAwTZxK--nKDFCWhNkqdGbw
45e04ecb5b3e46989f8c283414dd5082.16, 23.47164, 120.326184,   後庄保安宮北營,   https://lh3.googleusercontent.com/g13qqfUdVLU3vDgaQQrVAft6p3LELeEHXMOqt4ad-qrR2RN2WO5pe8rN6ebwQLN6VSoVVCh1yGyYVp2GbEFzLDwjA7fX
0f767f06ebfb44e7ae30a2bb9e4c81fa.16, 23.462961, 120.331295,   太保里涼亭,   https://lh3.googleusercontent.com/4qBxD_KnGx9zmpV_Jy3rCUpQ4VapM0jFKfgtt1yG0yMLL55ZUm2QilU3twPKnns_y7P9-GYnWWhc3KVx-MXIbKmV6A
9a8c16735e4145de82b478f09e06a5c4.16, 23.466419, 120.332217,   蜜蜂音樂造型,   https://lh3.googleusercontent.com/Pz8Os2rCSzSQPyYHC0SpJY2jpFgdLs7EKJUmqfAhy3zQpvr3aaqAYV81kizYC8q3CPBy9B48lMQ1wy8fZzFSbE_8GDg
f23e0d66d8664037b3deaa22cf4e31a1.16, 23.470575, 120.332671,   太新橋-春意盎然彩繪,   https://lh3.googleusercontent.com/BU5wjxUvR7cCbTfeBaxxXmDApcr2DmfsZ2cqCnPNgX92WotoHUZ3ck1T-aU1RyeQ_oNjGbAqbFcOjHhEc24jhrUXzc0
76e2929601ac4df9afb073276151bd90.16, 23.473771, 120.373132,   ,  NULL
f7755eb428c7418795c59100a0116906.16, 23.474368, 120.373779,   南營土地公廟,   https://lh3.googleusercontent.com/H7CPMHK4dhaRPSFErAc4zyfrYsaQboitXTKFNZf24yHUQoi96o0W2SjBfW7GkjBm0ZMFI2OLlERBceE2983azWKqCg
471e4ec2d75a4b7d99f60658e752fe84.16, 23.475336, 120.38024,   北幹橋,   http://lh3.googleusercontent.com/V428hAgfVi-0QWvTUQcHiAnCvucLm5uQHLrlBkeCcqMp1nrLCblMC8mWazSOYGCtK42Q5Nqo_q_Gt9CqWQ7Xu04UEQ
a7eda98e4879374ebb51e24c24517de9.16, 23.475655, 120.37913,   ,  NULL
2f5fe46fbe604ce0852b368b423f7784.16, 23.475661, 120.37912,   管事厝特產地標,   https://lh3.googleusercontent.com/88hQPLYkLM_SaGwc6jlSFs6jxmfRWeMIo2Hc7aly5apYiwmAo5daI2WYqxtknGVqBDZiY6iQtZDbzCAL3v18IqlxSQ
7b6fcfd6871442f4bf76458c2c947ba2.16, 23.463266, 120.430092,   就是想要給它全倒,   https://lh3.googleusercontent.com/-hnAzSLAxMpJ7z7x7UttTq-rIVA9RYgfh2134LM_isZJ_uiJHLHAS8szpsJQB_aBZK2DB5GuI5FRb-5tApYGsxix8A
620faf17cbf74282bbc85d7b30628d95.16, 23.463355, 120.455928,   真北平餐廳,   https://lh3.googleusercontent.com/P8qTR0RnLNsrSIeV0rgc3lvIzCXQq1wWbPEGWqVncPObnDNESsP29-igDL3VrP2EZtp2cufyAY_KI0JLLEzcIpfpJp4
41f1f19b92864adc926bf77f9cd0a878.16, 23.468267, 120.461897,   小白長得很像他哥哥,   https://lh3.googleusercontent.com/FJFimboHkrORTTPay0ryeAULuPuDQbXfEPXcN-l2nBuUWCI31WnVcMu9znJe4YZK8J4q_tnlVr0kv2tj1KX0DxAsILGP
b270d15449d34d2682efd79f219f57b7.16, 23.468563, 120.445178,   鐵腕串燒,   https://lh3.googleusercontent.com/C5OeFjzRyTmdc56mpTg_AQBCoaFnpotXFFhgURVadIEqW9ifYKd-BuuL3nO6BSaivWs5hWMDJtJxFKAyAesYaX_2uvc
f778065e812643c9984a60244b3e3c43.16, 23.470727, 120.437873,   小矮人,   https://lh3.googleusercontent.com/ezdwGiEPZsvIM23MBqnuEf8gQtAZm529hqhXDkwKyHR-PdUfelI5TCPQySozb91gxxJ4JQsEoXnXwhkjvA7BiFKkdCJ3
8affb11dc99542e69acc968acf8140e4.16, 23.471002, 120.46043,   千手千魚,   https://lh3.googleusercontent.com/m-pprURErPFwDwD88WKGW_ZQd1KwED_Ev5V2m2jr75Pf5G8-pZNmfYkJezcHllxawvryJxmkrmPKjfv1txIhhxrlMg
751793ea41963f219c0937b0823e5844.16, 23.471558, 120.435327,   ,  NULL
f91c93b340d94c11ab0c581ef887582f.16, 23.46279, 120.479991,   毛毛蟲指標,   https://lh3.googleusercontent.com/dREjxbeVcEXJLkr6rOtgmL8t_yD_VizknYRg9-MxGfw4vwZbwq9pUznya9XJ84cNwlxw4t5U3QBygGuE8Pt46n2Njz4Z
7b7eb282d79641c0be12a4b0310cddca.16, 23.464648, 120.463849,   宣信街牆壁上地圖,   https://lh3.googleusercontent.com/ZaqDeW9MPu0qFDIi4TyzPLnZgSPNVVk0eC-DaxTj5Zmo9GPetn0N8mnnqe8NfdsnAwsucZKWVUttY5c5BopzcTnxvc0
c2aaa2d9d18246f294d72a8ceb974f08.16, 23.47211, 120.464129,   嘉義高工,   https://lh3.googleusercontent.com/IU0_DMFlxRc3nQDss5gejfPnlmvSLfReCcPu1tdQM9bQAWB80R34VVdTBvTLcY8VhD9YQ8R6NITzWOhiT5BnsZ96Nw
6a6e75b3df444f1da1185984d21e3d78.16, 23.475638, 120.470206,   妖怪壁畫,   https://lh3.googleusercontent.com/oR7LcA88WNxdQxsr_hAAyF3CxG0pjD3mDFl0pTrPmIuG_Y3Hps5Xt9fyFuKUQYxmRWDFI_jSHiR2LDr_9YPuX3vX9bGx
04638042589a4bab8bceb11f08ffe68f.16, 23.449529, 120.288297,   國立體育運動大學籃球場,   https://lh3.googleusercontent.com/16HlMeutBRgvBHVlK6qd6azKP9-QEyZvghZKqqZ1cBzivSLj0aYF4W_TerPXy2uEgqEh65ctlSsUAlm8utAzW1LAsJcX
48d6ef53dab54c1fad79a7587fea9116.16, 23.450252, 120.286938,   夏米體大,   https://lh3.googleusercontent.com/NimITUC5bFADiFMNJgH924LRE_NuH7Yhoxd7kNsQ5qs-PJpbERt4ByTxtczbO0z-MI1IC_htwdF1Hhx3f_2HrkZw4lg
0cb9f05ec7754f8d87df698d2a41ae61.16, 23.451413, 120.28908,   國立體育運動大學門口,   http://lh3.googleusercontent.com/qiMkpsk31efBJjbZPyhyrPIEsD_86pzhvhlfIwzymcNMbhHYFig5_4-WQpoQNNeNCdybl1rSzKUbkBilsXns08MSj-0
71bb69afb93840b6b583796de6dad9cb.16, 23.455332, 120.289519,   田徑場南側涼亭,   https://lh3.googleusercontent.com/yXfP824S2ZYlCxfBCNEo7Ey6KxbxgZHXK29MKVgPfTcDta0okf1W1AF6LXBgKS_FnAK87UOB1njz6G6yfZ09iwQCF7IU
6a986c961e354996afe682521a618170.16, 23.457418, 120.290582,   主題溜滑梯,   https://lh3.googleusercontent.com/Yo5wgTQ97bvVT4WNjW4f-LGzVi1rNpu30tpgvmlsdV3clNg8MKQDunKM5hnmAcXT1tyL302t4jhR-8yo1EJCFD9yGag
62b10167c9e34b81b3ebde10ed0d47b6.16, 23.458991, 120.288202,   公園小火車,   https://lh3.googleusercontent.com/WLnQtNnb0orJbzvcKAnVix71AXR3yMePoMJiRwh4Sti4XpVV92aNO50ujWE61ci4FUaMGAw13DzDoHwikyZec69ozn98
593596137aba4700b52f2c976390f469.16, 23.460134, 120.292473,   嘉義人家己人,   https://lh3.googleusercontent.com/2GJKz1GpMseJSzcrZfEWx-2F_k4v14FgA1FCLdXZbfXInhHeZ_TX6ZnDK6Yzyls0V4jrzYfO4_Cat06mHYMQABai7rM
56f28aad8545454883bf8fdc785bab79.16, 23.462256, 120.285472,   切診,   http://lh3.googleusercontent.com/K8gWQ2WGWbLg7JAKyiEmdhRcTnigMbukPbS2jxWbW6nsRPwVMCAgoVgACErcYEJeNP3rQ3dGkYOFK_0hEmK2qK239A
cc27b4528695413fa6fa6335e3e01fd3.16, 23.4545, 120.329636,   圍牆裝飾,   https://lh3.googleusercontent.com/l-GiWNEyUSFY-VfbDHQ9t4S2jVXktW6gkt84UjU7AQqKZHnx0LwxH7v0tq7k7-vdPh_K21fqiqtZ-tzNfG6j4QK0zSA
b91076da0278443b9b3db910a7407f16.16, 23.456032, 120.321114,   綠能的台灣,   https://lh3.googleusercontent.com/k09jPVHs1_QunF7l14w6ub5AevH9KRcUj4yZEC7Ee7ilWQk5QHLaVi5zzRZ3h7XCU8qCKjdP_021qPhelX0cifHGRQ
2db2867622644f09af0e0625fb493f66.16, 23.456746, 120.310342,   天源宮,   https://lh3.googleusercontent.com/1qxYUa4W_-JRFx6oolvEGQNEz8NNrx_FQGJRJrwd2x7x6qLcTSTtCvDGkBinF9rDvQUXsAdJDtF3GpFW-JgZgpyYOZqk
4e9b3a73d88a43c3a7ccb0e0ed26e062.16, 23.458713, 120.32264,   俊與婆 ,   https://lh3.googleusercontent.com/plBCdljrxAvXikRt8CIvHzZp8VwdIqzoKxaTUz0sHAURK-Z90roj_lAh7tDmmAPfby8MK02OWxRKTPwiIeZ4gojDlQ
a0c8d89f6468410bb15eb3fd6269ccf7.16, 23.459661, 120.322685,   高鐵嘉義站裝飾,   https://lh3.googleusercontent.com/zYMIkaeUaQWLauD39uLfJBauJOWm9pcFraG3nYhyOVUBcSvrHri40iijqsgAXcelttBLbcfn0NTZ2rfNIBG0uynZSQ
3d1a032d3548403e8d1b26a73ae9ecfe.16, 23.459986, 120.30962,   崙頂西營大將軍,   https://lh3.googleusercontent.com/d8ZNSAppi960CrHj1Ql0Z13RF0KFrmGZiwyhuBno663DJL4yMJHQDuacL7gBzxArsR9D2AIiOjMcoBJW9bolXSq3G5Xw
d8c9d8a32924404e81b33c6f8685c8bd.16, 23.451228, 120.339583,   太保市兒童公園,   https://lh3.googleusercontent.com/rhDw7FYsRNK7eFGZmBpnQHYtqUiNSN3cdK5HaDMrig5yxcUUeV8rIrpUhnL561xXGJd9qeehA2j9PyeuduaemgxdpbY
523060df05ec4869aac6d296f39cfc4c.16, 23.451993, 120.331355,   春珠橋,   https://lh3.googleusercontent.com/UQsiSugt46UvRRTDdMHwTEbm-i8rF6Zlnw2r29aHTCGsZgFV3B7En-8DO-daiK7nzP5CTtPxH4_m0b0E2CfJympAbq3v
ab70d7cbb0dc40b4804b1b105f3949e9.16, 23.454191, 120.331599,   新太保樓,   http://lh3.googleusercontent.com/zMPsbrwStHgryI12eTxi0NEOXe2n9GolMnTjlgj61S1FBi1847Y3pyWug_WS3mRmPRJFQ4POuzWB-4svZh6Avq0Bzg
d66d0fcf361c41d0a9393b3d30f8ba31.16, 23.45486, 120.345655,   平安宮,   https://lh3.googleusercontent.com/n1-P7w-WyUHbz1meO22-WTNXr3VmWwiiri8gPSw5G3uU_TY-OCB9Wnzf8UXgaPAIsKSaOJe9kWWuGoT_bKv1P3RWNdQ
d7d78973eb60402689e9e691a934e5d8.16, 23.455088, 120.331689,   鄉友誼永固,   https://lh3.googleusercontent.com/VjOMEjNvqNUF5CVNds7LUnnOLjnuZPH5_9Ug0idZWXE8mmy9Ql38AvgafY99p8qqpmqgGSkqXLZQdj76ktPsrPftgw
445a2e61515e445fb00c2a5f12779d0d.16, 23.455125, 120.331295,   太保市圖書館,   https://lh3.googleusercontent.com/zCnGoxbfwFSdMEFHSxZYTu0_iTrarZILeUQxjI3aWZQzEm23Ws-draEOlr2TKzjPE_giHZ2lSD4CDIDYMsQoMT_Z_GY
bc1ae22918f2cc8a7b2393bd04e0dd30, 23.458156, 120.33238,   ,  NULL
6c23702d767f4ee498916233a72e0ddd.16, 23.458903, 120.332538,   太保市公所,   https://lh3.googleusercontent.com/CRfKcMAMrXV-W5H2I6RUIP64TTklnC90QempAcKQaEnNAyFvYbe28jWes01NIeG5CMgiqzhBpakRR5jVXEg
cd253620e1c74fe3b0029535e7749ec0.16, 23.462077, 120.361521,   南天宮北營大將軍,   https://lh3.googleusercontent.com/ArvXzj0z-eFjgI0nfmD75FaBT1Iw07TJAveNdbmsFE24IFYrqNgjC5uaR-PxUodanpP67qCsGrJq-MHh44YMtKEZIZw
d198e6986ca6420c89f1caf8b4341a30.16, 23.45228, 120.432225,   歡迎蒞臨嘉義市,   https://lh3.googleusercontent.com/NAH5fSFIbOsGknoRlpC2upBXwbYMsTvIyWi91r4PFncLCnG_yiTBexXAbLWbtngLL_FLbgj5H9l96inYF_jM4VD8mlie
ff1eb93c4a72400c8dda312272ec30ff.16, 23.459278, 120.443402,   嘉義光路壁畫,   http://lh3.googleusercontent.com/_KJ31Pp0Ku_rwlV9MLpvaynSxKDYuAcO5llM-4IzOEVzPE7f-AkcxDWboGqALkoKgQS7YmZ9bQwMD9Pu6ForueDofMG3
bf3ead28f234e278523a6776bdd8230c, 23.460676, 120.450277,   ,   https://lh3.googleusercontent.com/XBrV9LGnrekOT66bp2KkJUdzIUmHY2GX34GKSinQ06t0dag9Oes1RxPauFObpTzUkTbhn09CJvYYjtLfzmav7tA
844985e69d594997bf7806c41af51b77.16, 23.462045, 120.455621,   田耕革樞機主教紀念堂,   https://lh3.googleusercontent.com/cExs_SNrSHXz-gK_Gi5KfIG6s0rD7mtAY0D5qnCMkAhaa5-WQ-xsy43ecmi_KU2mJ-FFz2KvHLnIEbTxMzY1hEfvi5A
6547eb9da59b4d85a3ae361609ada489.16, 23.461648, 120.477962,   彩繪磁磚梅花鹿,   http://lh3.googleusercontent.com/PjbgkKpCxWpO7mH9lM4GJoO3G6jb-4qhwKTE37P_5ZMoJ4XRQi3yRwlNAJ9oXBHh0r9XKNxybH47zXZ_FI45P-mIMP4
f10d91c829d5404ab70f458f572337d8.16, 23.443416, 120.296854,   金爐,   https://lh3.googleusercontent.com/v5MGWCaKmyZO0OxZBbtUYGp9djTWYnANtJJ_58KOsVZA1qXyF8k0RDK8pqT-DCeaNlCG12LL0DL8MOwrQPaD_YaMfw
4dd48e9d5805414da571b34e03e1b7aa.16, 23.446661, 120.329821,   福春宮西營,   https://lh3.googleusercontent.com/GjSEZL4rwSJUuBW0HHz-Q0XnSGZc9XXF-kYXEtrM-RxpNHwcOW-wNcgNCWRC7UqO3avs01qf3b-Qw-KDeSVuH3qVJnU
a257bde840ad4bb886ab1ee1f186c82a.16, 23.438775, 120.339062,   保福宮南營,   https://lh3.googleusercontent.com/suKrtWM-6kqVLAGFhNULMnMawtJ_zilZG50mjM2toGQ9uSmXCk-2kKMKFWi5D5Tb7ufGlSustr7ZXXsxWFG8xGqI3Q
0ea7ecb91764469182a6401df68ce229.16, 23.44527, 120.337123,   太陽花彩繪,   https://lh3.googleusercontent.com/rL3ke3vA4tP06Q0gA7pEivQXF_FR_0imaSzpYC5Ujf9owg7FuA2Z1lr1r04hBnN9JCzzNWX6Limq08y7bEUxzwPPIew
f2f074d356564379a4f10d59e98ca417.16, 23.44539, 120.360875,   神秘石柱,   https://lh3.googleusercontent.com/qBs4F2h5TO8HQ6v3WB_eI3nCnafi9BShQdCUxKYAIxfLo-HxH_aHiwlr9CoGDUYzYCu1hcw7xNsH2DJsrSZD12lM01ph
84170ea608ee4bd9bf3cb0c02c4e2cdd.16, 23.447189, 120.360204,   德圓宮 南營大將軍,   https://lh3.googleusercontent.com/T0INtV5KxYCDuwqIfz2XNpXTysXa3oJ-QfcCObd2HGTl3kPRzl91KZLY1C13qmLMu6-Lta-zDOb6j5i0kMN66KJ94Vo2
9f8016c3726f4cc689de900b1484b756.16, 23.443713, 120.49354,   路邊地基主,   http://lh3.googleusercontent.com/_dK-P3TvMQjhQ1Pp44RvoZE6BDuo6Lj0fl4KE03qSAWB1Gk7ps7ruyi6okdwWU2rtgcKK8v9RK9j7stM_LBVE67Kccg
2eabbf8704e598311031ea96ce6adb05, 23.444184, 120.470856,   ,  NULL
66eb7243d9a64909bb18ec1e5b8766e8.16, 23.442366, 120.515231,   歡迎蒞臨義仁社區,   https://lh3.googleusercontent.com/vlC9X40TnWkYmUZRM8T0TMxoUcJClBvMnup8RnBpjhGn784JoeXNU1f_aYmgIZcxPFuLbYDQ6_wmVKqx6ksZIaBjg8Q
1fa2c2d0e7e98105a1255ec16f3d2e99, 23.445359, 120.49773,   ,  NULL
ddbae68c35ec49e3a0b8454e5e388750.16, 23.44116, 120.532671,   福興宮,   https://lh3.googleusercontent.com/_UtEJ2Dze7nhVN6cHEKbJ6tow2z64k4NBf_GUmAwH12tjjf0cQrualoBBfPC3ttsfyKGA6VnF0mpQYqefPg_cmEMktgP
0fa07add275a44dc8b05a5070d9e0815.16, 23.445506, 120.54129,   中華民俗村 - poetry floriculture,   https://lh3.googleusercontent.com/OzSECmenDyG5q_emv6B6qjqCBkAR-qmJccWiFolWQydWemWgQOH8G9h85L-itht5_T2kNAcixC9SIW_2N2EC7yqZpE1K
4d4c532ebecb811c1e7e826df10ca87e, 23.428048, 120.402717,   ,  NULL
f6fc0109596a6b42aa2d18e7c071844b, 23.428129, 120.409809,   ,  NULL
5e3f6af4a2d7dd65d2385f67c9bf58e5, 23.430332, 120.401847,   ,  NULL
e293418326cb42648841161bc49432f3.16, 23.422335, 120.444234,   增光寶塔牌樓,   https://lh3.googleusercontent.com/fFMrGVFueMvgpV9ah8TLSW1eiCi5K33GCBIabnepKYeBLn0fTQ71Hlaa7fpnvI3zWBsuxwcW2XvPAKYnp2bq2nvozIys
526e2928482042b5b2ec4aec94fb4991.16, 23.42407, 120.449382,   天理教,   https://lh3.googleusercontent.com/wF4BCmixvecg4kjFzqe0v1Jy2jjjFJGdtWfHd5jGzsJrpxK7VIchJ8I-JNQs4h51GGrLj9dT-zqDaTII9rMPnbGsTOw
4d6e0c6c3f454addaab6c1140a57fa1e.16, 23.434542, 120.475343,   三界埔導覽圖,   http://lh3.googleusercontent.com/-_noh8ziuSreQ3Y-cb-PRlHMyVCfypAzzwG8nCEqwJz4WhyB3mYew6ofVFkiexzjuBNqOHUE_991eaoQowynfEh-53w
b46adb8f4226d2c54374e7ee4311b4cb, 23.421937, 120.521594,   ,  NULL
07772fadae8d926cb03b24072fef9c90, 23.410127, 120.30867,   ,  NULL
f8bb6689e8084fd2864559451373a336.16, 23.409515, 120.34763,   順天宮北營,   https://lh3.googleusercontent.com/urwD6w7AQkNOT9o52jYfd7LhwsEwsK5Yo_3y266Cz4jsH74b5n5oj2FMcmE7VMimy7zvyCjjx7U1vkAARJ9aVA
231da14461b041aaae60b86a8e2d9619.16, 23.420883, 120.350573,   慈雲宮牌樓,   https://lh3.googleusercontent.com/PiFiTmLqP21MLQgbtJbWdRSA5AV1YnJTby9QCmk3G_OvrHYoB0oo6chnZw3EQOw3OTgBJrie2MwiXB10BvtSDKXw3A
df3098f143a6430da627803297016212.16, 23.415913, 120.377547,   保鹿鐵馬道_南靖入口,   https://lh4.ggpht.com/DsCICK9cpnxaPFV-mg6xiUAbrUDB3EBx99U1gkqx6s-KRLceYTx8CoylL-UASgeXL2KGU44-UkfY2kBegarf3w
d9aeb948872f4370b33ad7f3649b78fa.16, 23.421491, 120.390484,   龍德小廟,   https://lh3.googleusercontent.com/cV_D8PCBv8EhN7jzyJISX9HFSexKwRBN62o0kYCxyXj5TjGqRAfzl-iawA7rTsPzey9eipoTpmbHBdmyFZDj
5315f1c00dd04b88959ccb00f117ccc5.16, 23.42079, 120.449729,   嘉雲禪寺,   https://lh5.ggpht.com/nM55GcsGc2QNDLy3WC6lCUqVOXiw8Yr-6Qe7M8BAk6WVpACfMkJRTZwYRegY3ldjhXRYtJ4AghMTb9lXY6k
3c0cae4b7b004834a03317f5ea39e810.16, 23.402026, 120.347809,   親水橋,   https://lh3.googleusercontent.com/tGznZ09advkr2O_5QBQBsGM93V97_6rHm5lcw3ZiaasDeG_B42J0GNdz4Fi7ZvSS4oRR8D7eZJGxZQHuerSOPsKY3Qg
b46cff8737964b70bdd502744d1d5ace.16, 23.402864, 120.344952,   樹德宮東營,   https://lh3.googleusercontent.com/SY6dtjv7gfckPhVtvKOU3ubCRRwrn4eLZRpT5bhb2bx6uXhoE6w6EV8auPix3RUPlZYNak1tZ98aEdpAdLxy
8790670555e3445b9141b4accb11a1c8.16, 23.390193, 120.308878,   施家村社區座標,   https://lh3.googleusercontent.com/0aMfSuskKAq9e6ph4-rk0MC8cwLvl0geev1bLpKvyzE9wSf6jRH9TmttvBF5os_NqH5Y4SybEAV2XkSfpT3r2mEQxg
247ab56c44e544ceb9c115e17e100cfa.16, 23.39413, 120.326057,   鹿草慌野間高鐵軌道下自行車道休息小站,   https://lh3.googleusercontent.com/kE4_2nYwzMF1OfWKmt3I-fHjdeCPuRiAxTapSsXFnNxTSaz4SWXbeUcMQpMeE2vRWAA7q_155g4Q9-I19AQ5yzIi5w8
c70e664a19ab4c40bfb959dba144721b.16, 23.371869, 120.283844,   歡迎蒞臨下潭村光潭村,   https://lh3.googleusercontent.com/zI6k2jWQVvNHhWStjaPbe8rjW_xiI2yCSjYFqSdCo_fQGpMMsXAaU6QpJ6OqAjJ2YxwtvHsW4Cg3PV04a2noZu4hMg
9bd47f071d6fd601baf7cb8053dfc286, 23.345141, 120.414184,   ,  NULL
6ada83ff1b5937d81bb5c278f6b95e7f, 23.34799, 120.412906,   ,  NULL
9ad5607be8e8c20544c47909430910d5, 23.351649, 120.41483,   ,  NULL
